[
  {
    "name": "Szechenyi Baths",
    "id": "46364983002",
    "title": "Szechenyi Baths",
    "flickr": "https://api.flickr.com/services/rest/?method=flickr.photos.search&api_key=5fba024731b084d525d96ea6fa3170d1&tags=Szechenyi+Bath&privacy_filter=public&per_page=1&page=1&format=json&nojsoncallback=1",
    "wikiLink": "https://en.wikipedia.org/wiki/Sz%C3%A9chenyi_thermal_bath",
    "latlng": {
      "lat": 47.517498,
      "lng": 19.08098
    }
  },
  {
    "name": "Gellert Baths",
    "id": "46150574614",
    "title": "Gellert Baths",
    "flickr": "https://api.flickr.com/services/rest/?method=flickr.photos.search&api_key=5fba024731b084d525d96ea6fa3170d1&tags=Gellert+Bath&privacy_filter=public&per_page=1&page=1&format=json&nojsoncallback=1",
    "wikiLink": "https://en.wikipedia.org/wiki/Gell%C3%A9rt_Baths",
    "latlng": {
      "lat": 47.483744,
      "lng": 19.051621
    }
  },
  {
    "name": "Rudas Baths",
    "id": "39575665766",
    "title": "Rudas Baths",
    "flickr": "https://api.flickr.com/services/rest/?method=flickr.photos.search&api_key=5fba024731b084d525d96ea6fa3170d1&tags=Rudas+Bath&privacy_filter=public&per_page=1&page=1&format=json&nojsoncallback=1",
    "wikiLink": "https://en.wikipedia.org/wiki/Rudas_Baths",
    "latlng": {
      "lat": 47.489273,
      "lng": 19.046916
    }
  },
  {
    "name": "Lukacs Baths",
    "id": "24968452961",
    "title": "Lukacs Baths",
    "flickr": "https://api.flickr.com/services/rest/?method=flickr.photos.search&api_key=5fba024731b084d525d96ea6fa3170d1&tags=Budapest+Spa&per_page=1&page=1&format=json&nojsoncallback=1",
    "wikiLink": "https://en.wikipedia.org/wiki/Luk%C3%A1cs_Baths",
    "latlng": {
      "lat": 47.517813,
      "lng": 19.037059
    }
  },
  {
    "name": "Kiraly Baths",
    "id": "2511130858",
    "title": "Kiraly Baths",
    "flickr": "https://api.flickr.com/services/rest/?method=flickr.photos.search&api_key=5fba024731b084d525d96ea6fa3170d1&tags=Kiraly+Bath&privacy_filter=public&per_page=1&page=1&format=json&nojsoncallback=1",
    "wikiLink": "https://en.wikipedia.org/wiki/Kir%C3%A1ly_Baths",
    "latlng": {
      "lat": 47.510674,
      "lng": 19.038146
    }
  }
]